City_ID,City,Country,Lat,Lng,Max Temp,Humidity,Cloudiness,Wind Speed,Current Description,Date
0,Faya,SA,18.3851,42.4509,50.52,58,1,2.66,clear sky,2022-11-17 00:14:46
1,Kieta,PG,-6.2167,155.6333,85.24,61,100,4.12,overcast clouds,2022-11-17 00:14:46
2,Constantine,DZ,36.365,6.6147,60.21,77,75,5.75,broken clouds,2022-11-17 00:14:47
3,Ushuaia,AR,-54.8,-68.3,49.66,62,75,2.3,broken clouds,2022-11-17 00:13:40
4,Hasaki,JP,35.7333,140.8333,54.28,61,43,17.69,scattered clouds,2022-11-17 00:14:47
5,Punta Arenas,CL,-53.15,-70.9167,50.11,66,0,9.22,clear sky,2022-11-17 00:10:47
6,Atuona,PF,-9.8,-139.0333,78.1,76,3,14.74,clear sky,2022-11-17 00:14:48
7,Saskylakh,RU,71.9167,114.0833,-26.55,98,99,4.74,overcast clouds,2022-11-17 00:14:48
8,Kingman,US,35.1894,-114.053,54.12,18,0,17.27,clear sky,2022-11-17 00:14:42
9,Rikitea,PF,-23.1203,-134.9692,72.95,90,100,26.06,heavy intensity rain,2022-11-17 00:10:39
10,Clyde River,CA,70.4692,-68.5914,3.43,85,100,24.16,light snow,2022-11-17 00:14:48
11,Saint-Leu,RE,-21.15,55.2833,70.63,66,9,3.06,clear sky,2022-11-17 00:14:49
12,Mayo,US,38.8876,-76.5119,45.99,65,40,12.66,scattered clouds,2022-11-17 00:14:49
13,Lebu,CL,-37.6167,-73.65,57.99,92,5,8.63,clear sky,2022-11-17 00:14:50
14,Thompson,CA,55.7435,-97.8558,17.76,86,100,10.36,light snow,2022-11-17 00:14:50
15,Lompoc,US,34.6391,-120.4579,71.74,30,0,3.0,clear sky,2022-11-17 00:13:35
16,Mar Del Plata,AR,-38.0023,-57.5575,67.95,76,69,7.36,broken clouds,2022-11-17 00:14:50
17,Nikolskoye,RU,59.7035,30.7861,31.91,85,100,6.73,overcast clouds,2022-11-17 00:14:51
18,Bluff,NZ,-46.6,168.3333,58.8,85,99,11.41,overcast clouds,2022-11-17 00:12:09
19,Chuy,UY,-33.6971,-53.4616,61.72,79,1,6.29,clear sky,2022-11-17 00:14:51
20,Hermanus,ZA,-34.4187,19.2345,52.81,71,94,4.74,overcast clouds,2022-11-17 00:14:52
21,Hilo,US,19.7297,-155.09,82.26,85,100,5.75,haze,2022-11-17 00:10:35
22,Leh,IN,34.1667,77.5833,17.62,88,95,1.07,overcast clouds,2022-11-17 00:14:52
23,Butaritari,KI,3.0707,172.7902,81.01,74,69,18.75,broken clouds,2022-11-17 00:14:53
24,Menongue,AO,-14.6585,17.691,63.0,89,29,4.59,scattered clouds,2022-11-17 00:14:53
25,Auki,SB,-8.7676,160.7034,83.46,75,96,1.99,overcast clouds,2022-11-17 00:14:53
26,Bathsheba,BB,13.2167,-59.5167,81.21,83,40,13.8,scattered clouds,2022-11-17 00:14:53
27,Murgab,TM,37.4966,61.9714,49.06,56,70,16.49,broken clouds,2022-11-17 00:14:54
28,Burnie,AU,-41.0667,145.9167,58.95,52,8,5.59,clear sky,2022-11-17 00:14:29
29,Bandar-E Lengeh,IR,26.5579,54.8807,78.67,67,4,6.98,clear sky,2022-11-17 00:14:54
30,San Patricio,US,28.017,-97.5169,51.67,61,100,8.34,overcast clouds,2022-11-17 00:14:55
31,Tabuk,PH,17.4189,121.4443,76.39,79,17,1.81,few clouds,2022-11-17 00:14:55
32,Busselton,AU,-33.65,115.3333,59.18,76,41,16.64,scattered clouds,2022-11-17 00:10:41
33,Bethel,US,41.3712,-73.414,44.47,72,40,9.22,scattered clouds,2022-11-17 00:12:06
34,Hobart,AU,-42.8794,147.3294,57.25,71,75,10.36,broken clouds,2022-11-17 00:11:32
35,Kautokeino,NO,69.0125,23.0412,8.44,63,50,2.3,scattered clouds,2022-11-17 00:14:55
36,Grindavik,IS,63.8424,-22.4338,45.07,87,75,23.02,light rain,2022-11-17 00:14:56
37,Mataura,NZ,-46.1927,168.8643,58.48,86,100,2.3,overcast clouds,2022-11-17 00:10:51
38,Souillac,MU,-20.5167,57.5167,69.17,69,0,5.26,clear sky,2022-11-17 00:14:56
39,San Ignacio,BZ,17.1561,-89.0714,73.29,98,96,2.91,light rain,2022-11-17 00:14:56
40,Albany,US,42.6001,-73.9662,38.37,89,87,9.44,overcast clouds,2022-11-17 00:10:18
41,Makakilo City,US,21.3469,-158.0858,82.72,55,75,17.27,broken clouds,2022-11-17 00:14:57
42,Coihaique,CL,-45.5752,-72.0662,56.01,71,0,2.3,clear sky,2022-11-17 00:14:57
43,Santander,ES,43.4647,-3.8044,61.47,88,40,2.3,scattered clouds,2022-11-17 00:12:36
44,Ponta Do Sol,PT,32.6667,-17.1,70.72,85,76,7.96,broken clouds,2022-11-17 00:10:50
45,Port Alfred,ZA,-33.5906,26.891,62.19,94,60,4.76,broken clouds,2022-11-17 00:14:57
46,Vanimo,PG,-2.6741,141.3028,84.65,71,76,4.94,broken clouds,2022-11-17 00:14:58
47,Vaini,TO,-21.2,-175.2,77.05,67,0,0.6,clear sky,2022-11-17 00:10:37
48,Georgetown,MY,5.4112,100.3354,81.23,89,20,0.0,few clouds,2022-11-17 00:14:58
49,Jamestown,US,42.097,-79.2353,34.02,71,100,16.11,overcast clouds,2022-11-17 00:14:59
50,Broome,US,42.2506,-75.833,36.68,80,100,11.5,overcast clouds,2022-11-17 00:14:59
51,Takhatgarh,IN,25.3333,73.0,63.63,34,0,3.27,clear sky,2022-11-17 00:15:00
52,Carballo,ES,43.213,-8.691,60.49,87,97,9.42,overcast clouds,2022-11-17 00:15:00
53,Bredasdorp,ZA,-34.5322,20.0403,57.06,69,100,3.11,overcast clouds,2022-11-17 00:15:00
54,Qaanaaq,GL,77.484,-69.3632,-3.42,95,100,3.91,overcast clouds,2022-11-17 00:15:01
55,Terrace,CA,54.5163,-128.6035,39.34,87,85,4.47,overcast clouds,2022-11-17 00:12:49
56,New Norfolk,AU,-42.7826,147.0587,56.91,58,97,1.01,overcast clouds,2022-11-17 00:10:29
57,Victoria,HK,22.2855,114.1577,77.38,84,87,10.0,overcast clouds,2022-11-17 00:10:52
58,Nelson Bay,AU,-32.7167,152.15,66.25,66,28,15.99,scattered clouds,2022-11-17 00:15:01
59,Kruisfontein,ZA,-34.0033,24.7314,57.29,68,77,6.35,broken clouds,2022-11-17 00:15:02
60,Alofi,NU,-19.0595,-169.9187,78.69,77,59,9.1,broken clouds,2022-11-17 00:15:02
61,Macultepec,MX,18.1667,-92.8333,77.13,87,75,14.97,light rain,2022-11-17 00:15:03
62,Amos,CA,48.5669,-78.1162,21.11,91,100,6.35,light snow,2022-11-17 00:15:04
63,Torbay,CA,47.6666,-52.7314,33.58,79,71,1.99,broken clouds,2022-11-17 00:15:04
64,Coquimbo,CL,-29.9533,-71.3436,58.73,94,0,6.91,clear sky,2022-11-17 00:14:44
65,Puerto Ayora,EC,-0.7393,-90.3518,69.55,87,87,5.01,overcast clouds,2022-11-17 00:15:05
66,Karpathos,GR,35.507,27.2132,64.36,77,0,9.22,clear sky,2022-11-17 00:15:05
67,Padang,ID,-0.9492,100.3543,73.45,97,100,4.25,moderate rain,2022-11-17 00:15:06
68,Riohacha,CO,11.5444,-72.9072,80.49,82,100,11.43,overcast clouds,2022-11-17 00:15:06
69,Yellowknife,CA,62.456,-114.3525,0.12,92,75,4.61,light snow,2022-11-17 00:15:07
70,La Ronge,CA,55.1001,-105.2842,16.02,79,100,18.41,light snow,2022-11-17 00:15:07
71,San Joaquin,US,37.9333,-121.3011,66.49,39,0,0.0,clear sky,2022-11-17 00:15:07
72,Rapid Valley,US,44.0625,-103.1463,34.77,65,40,12.66,scattered clouds,2022-11-17 00:15:08
73,Luderitz,NA,-26.6481,15.1594,60.26,81,11,11.83,few clouds,2022-11-17 00:15:08
74,Saint George,US,37.1041,-113.5841,52.39,27,0,0.0,clear sky,2022-11-17 00:15:08
75,Chumikan,RU,54.7183,135.315,10.22,84,71,13.35,broken clouds,2022-11-17 00:10:37
76,Mahebourg,MU,-20.4081,57.7,67.24,66,1,5.26,clear sky,2022-11-17 00:15:09
77,Acapulco,MX,16.8634,-99.8901,82.22,78,75,3.44,broken clouds,2022-11-17 00:11:03
78,Orange,US,33.7,-117.7675,74.86,13,0,17.27,clear sky,2022-11-17 00:15:10
79,Chokurdakh,RU,70.6333,147.9167,-21.23,99,98,4.41,overcast clouds,2022-11-17 00:15:10
80,Kilindoni,TZ,-7.9139,39.6668,78.87,78,16,10.92,few clouds,2022-11-17 00:15:11
81,Tuatapere,NZ,-46.1333,167.6833,61.99,79,100,5.73,overcast clouds,2022-11-17 00:15:11
82,Kashi,CN,39.4547,75.9797,38.05,39,64,5.86,broken clouds,2022-11-17 00:15:12
83,Antofagasta,CL,-23.65,-70.4,63.68,79,5,5.08,clear sky,2022-11-17 00:12:27
84,Abu Samrah,SY,35.3029,37.1841,56.66,75,49,1.21,scattered clouds,2022-11-17 00:15:12
85,Saint-Philippe,RE,-21.3585,55.7679,69.39,74,43,7.56,scattered clouds,2022-11-17 00:15:13
86,Constitucion,CL,-35.3333,-72.4167,58.32,82,43,13.4,scattered clouds,2022-11-17 00:14:41
87,Bengkulu,ID,-3.8004,102.2655,74.28,95,100,19.46,light rain,2022-11-17 00:15:13
88,Gushikawa,JP,26.3544,127.8686,76.59,71,75,8.05,broken clouds,2022-11-17 00:15:14
89,Shu,KZ,43.5983,73.7614,27.07,89,55,7.27,broken clouds,2022-11-17 00:15:14
90,Avarua,CK,-21.2078,-159.775,78.85,65,75,13.8,broken clouds,2022-11-17 00:14:45
91,Kapaa,US,22.0752,-159.319,80.58,64,40,10.36,scattered clouds,2022-11-17 00:15:16
92,Alta Floresta,BR,-9.8756,-56.0861,72.01,94,97,0.96,overcast clouds,2022-11-17 00:15:16
93,Colares,PT,38.7992,-9.4469,65.75,96,99,18.01,overcast clouds,2022-11-17 00:15:17
94,Bazarnyy Syzgan,RU,53.7512,46.7535,25.2,91,100,8.14,overcast clouds,2022-11-17 00:15:17
95,Cape Town,ZA,-33.9258,18.4232,61.27,73,85,11.01,overcast clouds,2022-11-17 00:15:18
96,Naliya,IN,23.2667,68.8333,75.02,53,0,4.29,clear sky,2022-11-17 00:15:19
97,Skibbereen,IE,51.55,-9.2667,45.1,86,100,8.37,overcast clouds,2022-11-17 00:15:19
98,Ust-Kut,RU,56.7938,105.7672,29.12,90,99,9.93,overcast clouds,2022-11-17 00:15:20
99,Cherskiy,RU,68.75,161.3,1.29,97,100,4.83,light snow,2022-11-17 00:15:20
100,Uruzgan,AF,32.8333,66.0,41.32,41,2,7.92,clear sky,2022-11-17 00:15:21
101,Bintulu,MY,3.1667,113.0333,77.79,91,100,3.6,overcast clouds,2022-11-17 00:15:22
102,Nome,US,64.5011,-165.4064,31.15,80,100,19.57,overcast clouds,2022-11-17 00:14:14
103,Port Hardy,CA,50.6996,-127.4199,44.85,63,35,2.8,scattered clouds,2022-11-17 00:15:23
104,Kasungu,MW,-13.0333,33.4833,68.63,69,7,2.84,clear sky,2022-11-17 00:15:23
105,Pochutla,MX,15.7432,-96.4661,82.22,76,92,3.27,overcast clouds,2022-11-17 00:15:24
106,Isangel,VU,-19.55,169.2667,82.89,64,94,6.8,overcast clouds,2022-11-17 00:15:24
107,Carnarvon,AU,-24.8667,113.6333,67.15,57,100,14.99,overcast clouds,2022-11-17 00:15:24
108,Praia Da Vitoria,PT,38.7333,-27.0667,63.75,79,26,15.5,scattered clouds,2022-11-17 00:15:25
109,Richards Bay,ZA,-28.783,32.0377,70.84,92,83,7.07,broken clouds,2022-11-17 00:15:26
110,Sao Joao Da Barra,BR,-21.6403,-41.0511,71.11,91,100,16.55,light rain,2022-11-17 00:15:26
111,East London,ZA,-33.0153,27.9116,65.37,78,81,2.55,broken clouds,2022-11-17 00:13:30
112,Bandarbeyla,SO,9.4942,50.8122,78.01,69,16,15.48,few clouds,2022-11-17 00:15:27
113,Klaksvik,FO,62.2266,-6.589,49.12,89,82,33.67,light rain,2022-11-17 00:15:28
114,Bodden Town,KY,19.2833,-81.25,82.4,74,20,10.36,few clouds,2022-11-17 00:15:29
115,Nioro,GM,13.35,-15.75,77.43,66,83,3.94,broken clouds,2022-11-17 00:15:29
116,Belyy Yar,RU,53.6039,91.3903,28.29,86,40,4.47,light shower snow,2022-11-17 00:14:00
117,Sao Francisco De Paula,BR,-29.4481,-50.5836,57.38,53,0,4.05,clear sky,2022-11-17 00:15:29
118,Pevek,RU,69.7008,170.3133,6.44,95,100,4.63,light snow,2022-11-17 00:15:30
119,Norman Wells,CA,65.282,-126.8329,13.73,87,100,4.72,overcast clouds,2022-11-17 00:15:30
120,Mehamn,NO,71.0357,27.8492,42.75,39,51,14.97,broken clouds,2022-11-17 00:15:30
121,Kavieng,PG,-2.5744,150.7967,84.4,68,100,8.88,overcast clouds,2022-11-17 00:15:31
122,Kholmogory,RU,64.2229,41.656,21.96,97,16,2.91,few clouds,2022-11-17 00:15:31
123,Bambous Virieux,MU,-20.3428,57.7575,67.21,65,0,4.7,clear sky,2022-11-17 00:11:14
124,Barrow,US,71.2906,-156.7887,28.42,74,0,19.57,clear sky,2022-11-17 00:15:31
125,Hithadhoo,MV,-0.6,73.0833,80.71,76,79,10.56,broken clouds,2022-11-17 00:15:32
126,Ribeira Grande,PT,38.5167,-28.7,63.77,64,59,4.0,broken clouds,2022-11-17 00:10:39
127,Mogocha,RU,53.7333,119.7667,13.39,95,100,1.61,overcast clouds,2022-11-17 00:15:33
128,Domna,RU,51.8971,113.1573,28.56,64,70,8.95,broken clouds,2022-11-17 00:12:24
129,Mogadishu,SO,2.0371,45.3438,78.49,83,20,10.09,few clouds,2022-11-17 00:15:33
130,Vila Velha,BR,-20.3297,-40.2925,71.55,97,75,3.44,broken clouds,2022-11-17 00:15:34
131,Arraial Do Cabo,BR,-22.9661,-42.0278,72.3,82,96,14.63,overcast clouds,2022-11-17 00:15:34
132,Waingapu,ID,-9.6567,120.2641,82.36,73,100,2.08,overcast clouds,2022-11-17 00:15:35
133,Cockburn Town,TC,21.4612,-71.1419,82.09,76,7,17.98,clear sky,2022-11-17 00:10:48
134,Boueni,YT,-12.9025,45.0761,75.18,75,52,5.21,broken clouds,2022-11-17 00:15:35
135,Djenne,ML,13.9061,-4.5533,75.29,15,62,9.82,broken clouds,2022-11-17 00:15:36
136,Tuktoyaktuk,CA,69.4541,-133.0374,14.0,73,40,10.36,scattered clouds,2022-11-17 00:15:36
137,Mana,GF,5.6592,-53.7767,78.22,87,100,8.05,overcast clouds,2022-11-17 00:15:36
138,Esperance,AU,-33.8667,121.9,67.44,55,77,15.77,broken clouds,2022-11-17 00:15:37
139,Sabya,SA,17.1495,42.6254,80.76,68,1,6.06,clear sky,2022-11-17 00:15:37
140,Pisco,PE,-13.7,-76.2167,64.45,82,0,18.41,clear sky,2022-11-17 00:15:06
141,Ahipara,NZ,-35.1667,173.1667,68.99,64,50,7.47,light rain,2022-11-17 00:15:37
142,Narsaq,GL,60.9167,-46.05,25.02,91,54,6.67,broken clouds,2022-11-17 00:15:38
143,Khatanga,RU,71.9667,102.5,-24.34,100,98,4.92,overcast clouds,2022-11-17 00:11:54
144,Lugovoy,KZ,42.9472,72.7644,23.45,83,48,6.62,scattered clouds,2022-11-17 00:15:38
145,Iqaluit,CA,63.7506,-68.5145,6.53,78,100,4.61,light snow,2022-11-17 00:15:39
146,Novo Aripuana,BR,-5.1206,-60.3797,79.9,76,99,2.51,overcast clouds,2022-11-17 00:15:39
147,Castro,BR,-24.7911,-50.0119,58.39,74,1,5.79,clear sky,2022-11-17 00:15:39
148,Sitka,US,57.0531,-135.33,49.89,76,0,0.0,clear sky,2022-11-17 00:10:45
149,Ust-Tsilma,RU,65.441,52.1498,-5.17,100,12,3.85,few clouds,2022-11-17 00:15:40
150,Severo-Kurilsk,RU,50.6789,156.125,35.37,64,75,6.6,broken clouds,2022-11-17 00:15:40
151,Aklavik,CA,68.2191,-135.0107,8.6,85,75,3.44,broken clouds,2022-11-17 00:15:40
152,Atambua,ID,-9.1061,124.8925,80.91,68,100,1.68,overcast clouds,2022-11-17 00:15:41
153,Longyearbyen,SJ,78.2186,15.6401,22.84,68,20,17.27,few clouds,2022-11-17 00:12:18
154,Buala,SB,-8.145,159.5921,84.92,66,92,2.26,light rain,2022-11-17 00:15:42
155,Goderich,CA,43.7501,-81.7165,35.91,100,89,4.61,snow,2022-11-17 00:15:27
156,Ilulissat,GL,69.2167,-51.1,15.82,73,100,8.05,overcast clouds,2022-11-17 00:15:43
157,Cidreira,BR,-30.1811,-50.2056,67.26,61,0,4.38,clear sky,2022-11-17 00:12:00
158,Kaitangata,NZ,-46.2817,169.8464,58.24,82,99,4.29,overcast clouds,2022-11-17 00:15:43
159,Saint-Joseph,RE,-21.3667,55.6167,68.38,73,20,5.91,few clouds,2022-11-17 00:15:43
160,Kyra,RU,49.5776,111.9753,16.79,86,9,4.85,clear sky,2022-11-17 00:15:44
161,Santa Cruz De La Palma,ES,28.6835,-17.7642,74.14,56,0,4.61,clear sky,2022-11-17 00:15:44
162,Flin Flon,CA,54.7682,-101.865,19.24,86,100,11.5,light snow,2022-11-17 00:15:44
163,Beringovskiy,RU,63.05,179.3167,31.73,94,100,4.14,overcast clouds,2022-11-17 00:15:44
164,Tallahassee,US,30.4383,-84.2807,53.1,74,96,8.03,overcast clouds,2022-11-17 00:15:45
165,Jacksonville,US,30.3322,-81.6556,62.6,79,0,9.22,clear sky,2022-11-17 00:15:45
166,Dikson,RU,73.5069,80.5464,-1.43,97,100,13.53,overcast clouds,2022-11-17 00:15:45
167,Leningradskiy,RU,69.3833,178.4167,5.54,93,100,5.23,overcast clouds,2022-11-17 00:15:46
168,Novyy Urengoy,RU,66.0833,76.6333,1.78,95,96,7.09,light snow,2022-11-17 00:14:35
169,Port Blair,IN,11.6667,92.75,75.24,94,75,2.3,mist,2022-11-17 00:15:46
170,Faanui,PF,-16.4833,-151.75,79.41,73,100,4.27,overcast clouds,2022-11-17 00:13:34
171,Grand Gaube,MU,-20.0064,57.6608,68.4,72,42,4.0,scattered clouds,2022-11-17 00:15:46
172,Zambezi,ZM,-13.5432,23.1047,63.86,96,97,3.53,overcast clouds,2022-11-17 00:15:47
173,Sao Filipe,CV,14.8961,-24.4956,77.45,68,55,2.8,broken clouds,2022-11-17 00:15:47
174,Faro,PT,37.0194,-7.9322,64.18,100,75,13.8,broken clouds,2022-11-17 00:11:47
175,Marystown,CA,47.1666,-55.1483,37.11,72,91,4.07,overcast clouds,2022-11-17 00:12:30
176,Flinders,AU,-34.5833,150.8552,67.17,47,5,4.0,clear sky,2022-11-17 00:15:47
177,Kaniama,CD,-7.5667,24.1833,64.78,96,97,2.01,overcast clouds,2022-11-17 00:15:48
178,Lata,PT,40.1629,-8.3327,63.07,98,100,10.11,light rain,2022-11-17 00:15:48
179,Hami,CN,42.8,93.45,36.59,42,100,3.24,overcast clouds,2022-11-17 00:15:48
180,Vredendal,ZA,-31.6683,18.5012,55.87,78,86,4.34,overcast clouds,2022-11-17 00:15:48
181,Skalat,UA,49.4273,25.9787,36.34,96,100,11.77,overcast clouds,2022-11-17 00:13:10
182,Miram Shah,PK,33.0086,70.0697,53.28,35,0,6.24,clear sky,2022-11-17 00:15:49
183,Nizhniy Kuranakh,RU,58.8353,125.4869,7.36,97,98,1.92,light snow,2022-11-17 00:15:49
184,Port Augusta,AU,-32.5,137.7667,68.38,33,0,8.77,clear sky,2022-11-17 00:15:49
185,Sambava,MG,-14.2667,50.1667,71.19,92,25,6.38,scattered clouds,2022-11-17 00:15:50
186,Iquique,CL,-20.2208,-70.1431,64.44,73,12,3.22,few clouds,2022-11-17 00:12:21
187,Charyshskoye,RU,51.3978,83.5598,17.37,81,80,12.12,broken clouds,2022-11-17 00:15:50
188,Trelew,AR,-43.249,-65.3051,64.92,41,1,16.13,clear sky,2022-11-17 00:15:50
189,Terney,RU,45.0503,136.6092,31.05,65,4,5.93,clear sky,2022-11-17 00:15:51
190,Saint-Augustin,CA,51.226,-58.6502,19.6,92,84,2.24,broken clouds,2022-11-17 00:15:51
191,Noyabrsk,RU,63.1994,75.4507,-15.54,96,51,6.62,broken clouds,2022-11-17 00:15:51
192,Bonthe,SL,7.5264,-12.505,77.05,82,55,1.1,broken clouds,2022-11-17 00:15:52
193,Puerto Carreno,CO,6.189,-67.4859,79.97,83,100,2.98,overcast clouds,2022-11-17 00:15:52
194,Sar-E Pul,AF,35.8333,66.1667,38.19,43,4,7.74,clear sky,2022-11-17 00:15:52
195,Poum,NC,-20.2333,164.0167,79.54,77,92,6.89,overcast clouds,2022-11-17 00:15:53
196,Vila Do Maio,CV,15.1333,-23.2167,77.79,72,74,10.16,broken clouds,2022-11-17 00:15:53
197,Meulaboh,ID,4.1363,96.1285,75.7,87,100,3.98,light rain,2022-11-17 00:15:53
198,Evensk,RU,61.95,159.2333,3.0,90,98,6.2,overcast clouds,2022-11-17 00:12:46
199,Dingle,PH,10.9995,122.6711,79.72,88,93,8.21,overcast clouds,2022-11-17 00:15:54
200,Morros,BR,-9.4467,-46.3003,72.55,87,81,4.59,light rain,2022-11-17 00:15:54
201,Tumaco,CO,1.7986,-78.8156,76.84,82,86,9.53,overcast clouds,2022-11-17 00:15:54
202,Jiayuguan,CN,39.8167,98.3,28.08,32,0,4.76,clear sky,2022-11-17 00:15:55
203,Northam,GB,51.0333,-4.2167,49.6,92,100,17.18,overcast clouds,2022-11-17 00:15:55
204,Kodiak,US,57.79,-152.4072,44.11,93,100,12.66,light rain,2022-11-17 00:15:56
205,Narodychi,UA,51.2029,29.0823,31.33,87,100,11.83,overcast clouds,2022-11-17 00:15:56
206,Martapura,ID,-3.4167,114.85,80.69,69,100,2.3,overcast clouds,2022-11-17 00:15:56
207,Zhigansk,RU,66.7697,123.3711,-18.31,90,100,11.61,overcast clouds,2022-11-17 00:15:57
208,Helong,CN,42.5397,128.9972,35.83,50,7,4.41,clear sky,2022-11-17 00:15:57
209,Petropavlovsk-Kamchatskiy,RU,53.0452,158.6483,16.39,62,0,6.71,clear sky,2022-11-17 00:15:37
210,Bundaberg,AU,-24.85,152.35,75.22,33,33,5.99,scattered clouds,2022-11-17 00:15:58
211,Slupca,PL,52.2873,17.8719,38.19,64,99,14.03,overcast clouds,2022-11-17 00:15:58
212,Shamkhal,RU,43.0596,47.3373,50.02,59,100,10.25,overcast clouds,2022-11-17 00:15:58
213,Sinnamary,GF,5.3833,-52.95,78.66,83,100,9.6,overcast clouds,2022-11-17 00:15:58
214,Tessalit,ML,20.1986,1.0114,69.42,16,40,7.16,scattered clouds,2022-11-17 00:15:59
215,Atbasar,KZ,51.8,68.3333,12.33,92,89,7.47,overcast clouds,2022-11-17 00:15:59
216,Altamira,BR,-3.2033,-52.2064,80.56,60,86,2.35,overcast clouds,2022-11-17 00:15:21
217,Dharchula,IN,29.85,80.5333,48.88,35,1,7.18,clear sky,2022-11-17 00:16:00
218,Isla Vista,US,34.4133,-119.861,71.35,23,0,6.91,clear sky,2022-11-17 00:16:00
219,Talnakh,RU,69.4865,88.3972,-28.01,99,43,4.36,scattered clouds,2022-11-17 00:16:01
220,Holme,DK,56.1138,10.1725,44.19,76,94,26.98,overcast clouds,2022-11-17 00:16:01
221,Warrington,GB,53.3925,-2.5802,49.86,93,40,9.22,light rain,2022-11-17 00:16:01
222,Belmonte,BR,-15.8631,-38.8828,76.35,90,98,7.45,light rain,2022-11-17 00:16:02
223,Natchitoches,US,31.7668,-93.1335,43.65,87,0,0.0,clear sky,2022-11-17 00:16:03
224,Kharan,PK,28.5833,65.4167,59.58,24,0,9.48,clear sky,2022-11-17 00:16:03
225,Progreso,MX,21.2833,-89.6667,78.91,80,15,11.48,light rain,2022-11-17 00:16:03
226,Kavaratti,IN,10.5669,72.642,81.52,72,28,4.12,scattered clouds,2022-11-17 00:16:04
227,Kloulklubed,PW,7.0419,134.2556,77.5,78,100,16.26,light rain,2022-11-17 00:16:04
228,Samarai,PG,-10.6167,150.6667,85.86,71,95,14.09,overcast clouds,2022-11-17 00:16:05
229,Alvdal,NO,62.1077,10.6307,26.49,94,19,6.15,few clouds,2022-11-17 00:16:05
230,Taikang,CN,46.8333,124.4167,25.72,72,9,8.3,clear sky,2022-11-17 00:16:05
231,Mareeba,AU,-17.0,145.4333,90.45,38,3,5.26,clear sky,2022-11-17 00:12:58
232,Sechura,PE,-5.5569,-80.8222,67.06,76,43,17.2,scattered clouds,2022-11-17 00:16:06
233,Kuryk,KZ,43.2,51.65,45.59,56,100,24.11,overcast clouds,2022-11-17 00:16:06
234,Sept-Iles,CA,50.2001,-66.3821,26.6,85,100,11.5,light snow,2022-11-17 00:16:07
235,Katsuura,JP,35.1333,140.3,60.21,70,51,15.01,broken clouds,2022-11-17 00:16:07
236,Ancud,CL,-41.8697,-73.8203,53.65,92,32,4.18,scattered clouds,2022-11-17 00:16:07
237,Tasiilaq,GL,65.6145,-37.6368,37.56,84,100,22.64,overcast clouds,2022-11-17 00:16:08
238,Tomatlan,MX,19.9333,-105.25,78.4,71,0,2.98,clear sky,2022-11-17 00:11:23
239,Salalah,OM,17.0151,54.0924,73.49,64,0,5.75,clear sky,2022-11-17 00:16:08
240,Rosetta,EG,31.4044,30.4164,65.19,74,6,7.67,light rain,2022-11-17 00:16:09
241,Yerbogachen,RU,61.2767,108.0108,6.62,96,100,2.62,overcast clouds,2022-11-17 00:16:09
242,Boguchany,RU,58.3814,97.4531,29.59,86,100,10.94,overcast clouds,2022-11-17 00:16:10
243,Nurpur,IN,29.15,78.4167,57.61,57,0,7.63,clear sky,2022-11-17 00:16:10
244,Adilabad,IN,19.6667,78.5333,61.21,61,4,1.28,clear sky,2022-11-17 00:16:11
245,Lorengau,PG,-2.0226,147.2712,84.65,58,92,6.67,overcast clouds,2022-11-17 00:16:11
246,Tautira,PF,-17.7333,-149.15,77.94,79,92,9.15,overcast clouds,2022-11-17 00:16:11
247,Springbok,ZA,-29.6643,17.8865,53.55,80,8,2.57,clear sky,2022-11-17 00:16:12
248,Rocha,UY,-34.4833,-54.3333,59.77,87,6,2.21,clear sky,2022-11-17 00:16:12
249,San Cristobal,VE,7.7669,-72.225,71.78,98,70,2.04,broken clouds,2022-11-17 00:16:13
250,Baiyin,CN,36.5583,104.2081,37.18,58,18,2.35,few clouds,2022-11-17 00:16:13
251,Bozoum,CF,6.3193,16.3799,68.52,54,79,1.92,broken clouds,2022-11-17 00:16:14
252,Provideniya,RU,64.3833,-173.3,37.51,87,100,18.01,fog,2022-11-17 00:12:26
253,Cap Malheureux,MU,-19.9842,57.6142,67.46,72,1,5.01,clear sky,2022-11-17 00:16:14
254,Hearst,CA,49.6835,-83.6665,14.25,92,100,4.03,overcast clouds,2022-11-17 00:16:15
255,Nanortalik,GL,60.1432,-45.2371,21.4,76,53,20.65,broken clouds,2022-11-17 00:16:15
256,Hervey Bay,AU,-25.2986,152.8535,77.02,35,46,14.0,scattered clouds,2022-11-17 00:13:34
257,Upernavik,GL,72.7868,-56.1549,12.11,92,97,13.47,overcast clouds,2022-11-17 00:16:16
258,Fort Nelson,CA,58.8053,-122.7002,22.95,54,34,2.64,scattered clouds,2022-11-17 00:15:20
259,Lodwar,KE,3.1191,35.5973,81.07,52,45,12.57,scattered clouds,2022-11-17 00:16:17
260,Bumba,CD,2.1833,22.4667,69.96,97,89,2.89,light rain,2022-11-17 00:16:17
261,Valdemarpils,LV,57.3707,22.5919,32.47,81,31,4.63,scattered clouds,2022-11-17 00:16:17
262,Parichhatgarh,IN,28.9833,77.9333,60.06,51,0,7.14,clear sky,2022-11-17 00:16:18
263,Xingcheng,CN,40.6167,120.7167,45.25,59,0,6.35,clear sky,2022-11-17 00:16:18
264,Okhotsk,RU,59.3833,143.3,-4.29,78,11,16.04,few clouds,2022-11-17 00:16:19
265,Acari,PE,-15.4311,-74.6158,69.51,73,83,4.61,broken clouds,2022-11-17 00:16:19
266,Cairns,AU,-16.9167,145.7667,95.07,47,1,3.44,clear sky,2022-11-17 00:13:48
267,Atar,MR,20.5169,-13.0499,77.04,21,30,9.42,scattered clouds,2022-11-17 00:16:20
268,Lucapa,AO,-8.4192,20.7447,63.84,98,100,1.61,overcast clouds,2022-11-17 00:16:20
269,Pangkalanbuun,ID,-2.6833,111.6167,78.57,87,98,1.57,overcast clouds,2022-11-17 00:16:21
270,Garowe,SO,8.4054,48.4845,71.69,73,15,9.6,few clouds,2022-11-17 00:16:21
271,Umba,RU,66.6871,34.3429,31.17,95,100,1.19,overcast clouds,2022-11-17 00:16:21
272,Vagur,FO,61.4732,-6.8119,48.56,85,51,28.81,broken clouds,2022-11-17 00:16:22
273,Tecoanapa,MX,16.5167,-98.75,80.91,74,44,4.68,scattered clouds,2022-11-17 00:16:22
274,Darhan,MN,49.4867,105.9228,25.7,56,3,3.2,clear sky,2022-11-17 00:16:23
275,Gazojak,TM,41.1875,61.4036,35.96,52,55,11.88,broken clouds,2022-11-17 00:16:23
276,Ilfracombe,GB,51.2093,-4.1134,50.56,92,100,5.01,overcast clouds,2022-11-17 00:16:23
277,Ostrovnoy,RU,68.0531,39.5131,29.59,87,89,7.07,overcast clouds,2022-11-17 00:16:24
278,Tambacounda,SN,13.7539,-13.7586,80.65,74,0,4.61,clear sky,2022-11-17 00:16:25
279,Yar-Sale,RU,66.8333,70.8333,7.7,93,100,6.78,overcast clouds,2022-11-17 00:16:25
280,Soyo,AO,-6.1349,12.3689,76.37,79,85,7.85,overcast clouds,2022-11-17 00:16:25
281,Jalu,LY,29.0331,21.5482,62.42,37,0,10.22,clear sky,2022-11-17 00:16:25
282,Puerto Escondido,MX,15.85,-97.0667,83.23,61,75,5.75,broken clouds,2022-11-17 00:16:26
283,Seoul,KR,37.5683,126.9778,49.44,61,47,2.35,scattered clouds,2022-11-17 00:12:52
284,Impfondo,CG,1.6381,18.0667,69.87,99,91,3.4,moderate rain,2022-11-17 00:16:27
285,Arlit,NE,18.7369,7.3853,68.56,19,5,6.96,clear sky,2022-11-17 00:16:27
286,Curico,CL,-34.9833,-71.2333,80.71,36,89,5.75,overcast clouds,2022-11-17 00:15:39
287,Tabriz,IR,38.08,46.2919,42.26,75,75,0.0,broken clouds,2022-11-17 00:16:28
288,Mount Gambier,AU,-37.8333,140.7667,56.97,59,66,5.21,broken clouds,2022-11-17 00:16:28
289,Cabo San Lucas,MX,22.8909,-109.9124,79.52,66,40,3.44,scattered clouds,2022-11-17 00:12:38
290,Hambantota,LK,6.1241,81.1185,76.82,82,82,4.63,broken clouds,2022-11-17 00:16:29
291,Baruun-Urt,MN,46.6806,113.2792,24.42,53,44,7.23,scattered clouds,2022-11-17 00:16:29
292,Aratoca,CO,6.6935,-73.0208,61.2,94,99,3.56,overcast clouds,2022-11-17 00:16:29
293,Khandyga,RU,62.6667,135.6,-44.25,100,56,2.59,broken clouds,2022-11-17 00:16:30
294,Port Macquarie,AU,-31.4333,152.9167,67.89,48,3,14.76,clear sky,2022-11-17 00:16:30
295,Portland,US,45.5234,-122.6762,51.84,56,0,12.66,clear sky,2022-11-17 00:16:30
296,Lappeenranta,FI,61.0587,28.1887,34.79,87,100,8.05,overcast clouds,2022-11-17 00:16:31
297,Zunyi,CN,27.6867,106.9072,52.23,88,96,3.15,overcast clouds,2022-11-17 00:16:31
298,Naze,JP,28.3667,129.4833,68.92,72,99,12.8,overcast clouds,2022-11-17 00:16:31
299,Porto Novo,BJ,6.4965,2.6036,77.9,83,21,6.24,light rain,2022-11-17 00:16:32
300,Prince George,CA,53.9166,-122.753,30.61,83,0,5.75,clear sky,2022-11-17 00:16:32
301,Geraldton,AU,-28.7667,114.6,68.41,60,75,17.27,broken clouds,2022-11-17 00:11:51
302,Ojhar,IN,20.1,73.9333,63.81,48,4,2.55,clear sky,2022-11-17 00:16:32
303,Manzanillo,CU,20.3433,-77.1167,78.15,82,52,8.63,broken clouds,2022-11-17 00:16:33
304,Gazli,UZ,40.1333,63.45,38.23,63,33,10.63,scattered clouds,2022-11-17 00:16:33
305,Dunedin,NZ,-45.8742,170.5036,55.8,99,98,3.4,overcast clouds,2022-11-17 00:16:34
306,Cabedelo,BR,-6.9811,-34.8339,79.47,75,6,8.75,clear sky,2022-11-17 00:16:34
307,Sur,OM,22.5667,59.5289,75.34,74,17,0.96,few clouds,2022-11-17 00:16:34
308,Hakui,JP,36.8833,136.7833,56.8,73,46,2.71,scattered clouds,2022-11-17 00:16:35
309,Saint-Georges,GD,12.0564,-61.7485,78.48,94,40,6.91,scattered clouds,2022-11-17 00:16:35
310,Tiksi,RU,71.6872,128.8694,-21.3,99,92,4.16,overcast clouds,2022-11-17 00:16:36
311,Georgiyevka,KZ,43.0369,74.7114,23.04,93,0,8.95,clear sky,2022-11-17 00:16:36
312,Broken Hill,AU,-31.95,141.4333,59.47,40,0,8.99,clear sky,2022-11-17 00:16:36
313,Shanghai,CN,31.2222,121.4581,60.67,87,75,11.01,mist,2022-11-17 00:16:22
314,Kulhudhuffushi,MV,6.6221,73.07,81.01,75,45,7.43,scattered clouds,2022-11-17 00:16:37
315,Los Llanos De Aridane,ES,28.6585,-17.9182,70.12,29,0,11.01,clear sky,2022-11-17 00:16:37
316,Lagoa,PT,39.05,-27.9833,62.04,73,51,21.99,broken clouds,2022-11-17 00:16:37
317,Ulaangom,MN,49.9811,92.0667,15.94,90,99,3.09,overcast clouds,2022-11-17 00:16:38
318,Bara,NG,10.3744,10.7288,72.46,36,96,6.82,overcast clouds,2022-11-17 00:13:36
319,Teya,RU,60.3778,92.6267,-0.94,99,100,2.8,overcast clouds,2022-11-17 00:16:38
320,San Policarpo,PH,12.1791,125.5072,81.25,86,74,10.76,broken clouds,2022-11-17 00:16:39
321,Zhezkazgan,KZ,47.8043,67.7144,21.09,74,54,9.24,broken clouds,2022-11-17 00:16:39
322,Kurilsk,RU,45.2333,147.8833,38.34,61,90,20.92,overcast clouds,2022-11-17 00:16:39
323,San Juan,AR,-31.5375,-68.5364,89.4,20,8,6.71,clear sky,2022-11-17 00:13:22
324,Zyryanka,RU,65.75,150.85,-9.51,98,100,13.56,light snow,2022-11-17 00:16:40
325,Santa Cruz,BO,-17.8,-63.1667,80.06,65,26,5.75,scattered clouds,2022-11-17 00:16:40
326,Gombong,ID,-7.6072,109.5142,79.92,84,94,1.41,overcast clouds,2022-11-17 00:16:40
327,Hastings,GB,50.8552,0.5729,55.92,91,91,34.23,overcast clouds,2022-11-17 00:16:41
328,Pachino,IT,36.7186,15.0907,65.79,76,72,12.95,broken clouds,2022-11-17 00:16:41
329,Mitsamiouli,KM,-11.3847,43.2844,77.65,78,79,8.75,broken clouds,2022-11-17 00:16:41
330,Texarkana,US,33.4251,-94.0477,50.22,56,0,5.75,clear sky,2022-11-17 00:16:42
331,Guerrero Negro,MX,27.9769,-114.0611,73.18,29,0,6.73,clear sky,2022-11-17 00:16:42
332,Abong Mbang,CM,3.9833,13.1833,69.12,87,68,2.59,broken clouds,2022-11-17 00:16:42
333,Seabra,BR,-12.4186,-41.7703,68.79,90,98,3.2,overcast clouds,2022-11-17 00:16:43
334,Severobaykalsk,RU,55.65,109.3167,25.77,84,83,6.33,broken clouds,2022-11-17 00:16:43
335,Cayenne,GF,4.9333,-52.3333,78.84,89,0,0.0,clear sky,2022-11-17 00:13:42
336,Teruel,ES,40.6667,-0.6667,47.64,91,99,16.02,overcast clouds,2022-11-17 00:16:43
337,Simao,CN,22.7886,100.9748,56.64,98,15,0.56,few clouds,2022-11-17 00:16:44
338,Karla,EE,59.3723,24.9275,34.57,93,75,3.44,broken clouds,2022-11-17 00:16:44
339,Koslan,RU,63.4564,48.8989,6.31,96,62,4.18,broken clouds,2022-11-17 00:16:44
340,Agirish,RU,61.9247,63.0231,-9.63,95,38,3.24,scattered clouds,2022-11-17 00:12:15
341,Kyaikkami,MM,16.08,97.5675,77.67,86,97,7.02,overcast clouds,2022-11-17 00:16:45
342,Le Vauclin,MQ,14.5452,-60.8388,80.65,78,20,9.22,few clouds,2022-11-17 00:16:45
343,Vysokogornyy,RU,50.1167,139.15,16.05,89,97,2.98,overcast clouds,2022-11-17 00:16:45
344,Derzhavinsk,KZ,51.1,66.3167,19.02,94,64,8.72,broken clouds,2022-11-17 00:16:46
345,Byron Bay,AU,-28.65,153.6167,68.94,39,93,11.56,overcast clouds,2022-11-17 00:14:03
346,Winslow,US,35.0242,-110.6974,46.58,18,0,3.44,clear sky,2022-11-17 00:16:46
347,Piacabucu,BR,-10.4056,-36.4344,76.6,86,66,8.48,broken clouds,2022-11-17 00:16:46
348,Lavrentiya,RU,65.5833,-171.0,33.76,95,92,16.53,overcast clouds,2022-11-17 00:16:47
349,Vilani,LV,56.5525,26.9245,26.64,91,13,4.85,few clouds,2022-11-17 00:16:47
350,Lupiro,TZ,-8.3833,36.6667,72.36,82,6,6.51,clear sky,2022-11-17 00:16:47
351,Camopi,GF,3.1655,-52.3158,75.07,82,100,4.03,overcast clouds,2022-11-17 00:16:48
352,Port-Gentil,GA,-0.7193,8.7815,76.82,86,60,9.71,moderate rain,2022-11-17 00:16:48
353,Kununurra,AU,-15.7667,128.7333,78.78,83,94,4.61,overcast clouds,2022-11-17 00:14:26
354,Avera,US,33.194,-82.5271,49.51,48,100,11.14,overcast clouds,2022-11-17 00:16:49
355,Itaituba,BR,-4.2761,-55.9836,79.63,75,99,2.33,overcast clouds,2022-11-17 00:16:50
356,Batagay,RU,67.6333,134.6333,-41.55,98,25,3.33,scattered clouds,2022-11-17 00:16:50
357,Vardo,NO,70.3705,31.1107,37.38,44,93,16.11,overcast clouds,2022-11-17 00:16:50
358,Pangnirtung,CA,66.1451,-65.7125,-1.71,83,83,3.65,broken clouds,2022-11-17 00:16:51
359,Peace River,CA,56.2501,-117.286,13.89,83,3,3.65,clear sky,2022-11-17 00:15:24
360,Emerald,AU,-23.5333,148.1667,77.34,27,59,13.76,broken clouds,2022-11-17 00:12:11
361,Rio Gallegos,AR,-51.6226,-69.2181,53.65,62,0,36.82,clear sky,2022-11-17 00:16:51
362,Wajir,KE,1.7471,40.0573,77.43,72,19,11.99,few clouds,2022-11-17 00:16:52
363,Dulce Nombre De Culmi,HN,15.1,-85.5333,84.43,98,94,3.31,overcast clouds,2022-11-17 00:16:52
364,Kushmurun,KZ,52.4503,64.6311,9.61,92,62,3.15,broken clouds,2022-11-17 00:16:52
365,Paamiut,GL,61.994,-49.6678,12.7,84,56,10.33,broken clouds,2022-11-17 00:16:52
366,Miyang,CN,24.4042,103.4428,54.43,96,24,1.83,few clouds,2022-11-17 00:16:53
367,Jiuquan,CN,39.7432,98.5174,29.32,31,0,4.54,clear sky,2022-11-17 00:16:53
368,Swift Current,CA,50.2834,-107.8014,20.21,93,100,24.16,overcast clouds,2022-11-17 00:16:53
369,Egvekinot,RU,66.3167,-179.1667,29.48,99,100,8.43,light snow,2022-11-17 00:16:54
370,Breves,BR,-1.6822,-50.4803,79.57,69,75,4.41,broken clouds,2022-11-17 00:16:55
371,Asau,RO,46.4333,26.4,36.52,88,84,2.44,broken clouds,2022-11-17 00:16:55
372,Basco,PH,20.4487,121.9702,80.65,72,48,16.67,scattered clouds,2022-11-17 00:16:56
373,Comodoro Rivadavia,AR,-45.8667,-67.5,60.66,51,0,20.71,clear sky,2022-11-17 00:14:49
374,Port Lincoln,AU,-34.7333,135.8667,60.93,63,3,17.65,clear sky,2022-11-17 00:16:56
375,Laguna,US,38.421,-121.4238,66.49,38,0,0.0,clear sky,2022-11-17 00:16:57
376,Makinsk,KZ,52.6292,70.4169,4.14,97,97,8.48,overcast clouds,2022-11-17 00:16:57
377,Kibuye,RW,-2.0597,29.3482,64.71,89,99,1.97,moderate rain,2022-11-17 00:16:58
378,Porgera,PG,-5.4667,143.2,60.57,41,96,2.44,overcast clouds,2022-11-17 00:16:58
379,Tambun,ID,-6.2641,107.0712,77.04,79,100,0.6,light rain,2022-11-17 00:16:58
380,Hamilton,US,39.1834,-84.5333,35.73,82,100,11.5,light snow,2022-11-17 00:14:16
381,Chateaubelair,VC,13.2833,-61.25,79.03,80,88,12.28,overcast clouds,2022-11-17 00:16:59
382,Noshiro,JP,40.2039,140.0242,40.03,54,87,13.15,overcast clouds,2022-11-17 00:17:00
383,Labuhan,ID,-6.8844,112.2051,81.27,78,99,3.78,overcast clouds,2022-11-17 00:17:01
384,Palmares Do Sul,BR,-30.2578,-50.5097,66.56,56,0,6.22,clear sky,2022-11-17 00:17:02
385,Kahului,US,20.8947,-156.47,84.22,63,20,24.16,few clouds,2022-11-17 00:17:02
386,Pilar,BR,-9.5972,-35.9567,72.34,90,71,4.65,broken clouds,2022-11-17 00:15:25
387,Arklow,IE,52.7931,-6.1414,47.55,83,99,7.94,overcast clouds,2022-11-17 00:17:03
388,San Vicente,AR,-26.6167,-54.1333,60.39,72,1,2.39,clear sky,2022-11-17 00:14:50
389,Paita,PE,-5.0892,-81.1144,65.08,85,66,16.58,broken clouds,2022-11-17 00:17:04
390,Baillif,GP,16.0202,-61.7463,76.64,76,0,10.16,clear sky,2022-11-17 00:17:04
391,Maniitsoq,GL,65.4167,-52.9,18.84,65,100,4.25,overcast clouds,2022-11-17 00:17:05
392,Gap,FR,44.6667,6.0,31.84,89,66,2.68,broken clouds,2022-11-17 00:14:56
393,Tongchuan,CN,35.0806,109.0897,44.46,69,0,4.41,clear sky,2022-11-17 00:17:05
394,Oksfjord,NO,70.2396,22.3479,30.38,38,12,5.64,few clouds,2022-11-17 00:17:06
395,Port Elizabeth,ZA,-33.918,25.5701,62.89,82,0,9.22,clear sky,2022-11-17 00:17:06
396,Santa Rita,BR,-7.1139,-34.9781,79.47,78,20,5.75,few clouds,2022-11-17 00:17:07
397,Itapirapua,BR,-15.8233,-50.6133,82.69,53,53,4.99,broken clouds,2022-11-17 00:17:07
398,Glomfjord,NO,66.8167,13.9667,42.71,23,68,9.98,broken clouds,2022-11-17 00:17:08
399,Lufilufi,WS,-13.8745,-171.5986,85.78,75,28,12.84,light rain,2022-11-17 00:13:27
400,Vila Franca Do Campo,PT,37.7167,-25.4333,64.2,90,82,7.54,light rain,2022-11-17 00:17:09
401,Loudi,CN,27.7344,111.9944,53.53,83,79,2.15,broken clouds,2022-11-17 00:14:08
402,Malaryta,BY,51.7905,24.074,31.82,80,96,13.33,overcast clouds,2022-11-17 00:17:09
403,Edremit,TR,39.5961,27.0244,51.55,87,75,4.61,broken clouds,2022-11-17 00:17:10
404,Akdepe,TM,42.0551,59.3788,33.89,53,90,12.77,overcast clouds,2022-11-17 00:17:11
405,Havoysund,NO,70.9963,24.6622,41.23,69,37,14.05,scattered clouds,2022-11-17 00:17:12
406,Kitangari,TZ,-10.65,39.3333,70.32,88,71,6.4,broken clouds,2022-11-17 00:17:12
407,Xichang,CN,27.8964,102.2634,44.71,80,0,0.49,clear sky,2022-11-17 00:17:13
408,Hailar,CN,49.2,119.7,20.46,80,82,8.95,broken clouds,2022-11-17 00:17:13
409,Sailana,IN,23.4667,74.9167,61.23,42,0,8.1,clear sky,2022-11-17 00:17:13
410,Ban Chang,TH,12.7254,101.0553,82.47,93,20,4.61,mist,2022-11-17 00:17:14
411,Bilma,NE,18.6853,12.9164,65.53,25,4,3.29,clear sky,2022-11-17 00:13:24
412,Banjarmasin,ID,-3.3244,114.591,80.74,80,100,1.79,overcast clouds,2022-11-17 00:17:14
413,Kharp,RU,66.8014,65.8081,4.75,90,60,9.95,broken clouds,2022-11-17 00:17:14
414,Chany,RU,55.3121,76.7647,14.13,93,100,9.95,overcast clouds,2022-11-17 00:17:15
415,Rio Grande,BR,-32.035,-52.0986,68.11,61,0,4.14,clear sky,2022-11-17 00:17:15
416,Placerville,US,38.7296,-120.7986,59.5,47,0,4.61,clear sky,2022-11-17 00:16:44
417,Quatre Cocos,MU,-20.2078,57.7625,68.11,66,8,5.53,clear sky,2022-11-17 00:17:16
418,Tromso,NO,69.6496,18.957,29.37,86,24,3.44,few clouds,2022-11-17 00:17:17
419,High Level,CA,58.5169,-117.136,13.24,76,2,3.53,clear sky,2022-11-17 00:15:09
420,Codrington,AU,-38.2667,141.9667,57.2,67,69,8.3,broken clouds,2022-11-17 00:16:00
421,Talara,PE,-4.5772,-81.2719,64.36,89,66,15.14,broken clouds,2022-11-17 00:17:17
422,Patrocinio,BR,-18.9439,-46.9925,72.28,57,70,0.96,broken clouds,2022-11-17 00:17:18
423,Saint-Pierre,RE,-21.3393,55.4781,69.91,49,0,6.91,clear sky,2022-11-17 00:17:18
424,Stornoway,GB,58.2093,-6.3865,48.16,77,39,4.61,scattered clouds,2022-11-17 00:16:31
425,Brae,GB,60.3964,-1.353,46.99,88,100,39.03,light rain,2022-11-17 00:17:18
426,San Rafael,AR,-34.6177,-68.3301,76.28,43,12,15.99,few clouds,2022-11-17 00:17:19
427,Troitsko-Pechorsk,RU,62.7084,56.1964,-21.32,100,27,2.13,scattered clouds,2022-11-17 00:17:19
428,Golden,US,39.7555,-105.2211,36.19,46,23,1.01,few clouds,2022-11-17 00:17:19
429,Lingao,CN,19.9103,109.6859,75.15,92,27,9.78,scattered clouds,2022-11-17 00:17:20
430,Kampot,KH,10.6167,104.1833,80.65,84,65,2.77,broken clouds,2022-11-17 00:17:21
431,Muros,ES,42.7762,-9.0603,61.09,83,100,14.63,overcast clouds,2022-11-17 00:17:21
432,Jega,NG,12.2175,4.3792,73.69,24,6,7.87,clear sky,2022-11-17 00:17:24
433,Yarada,IN,17.65,83.2667,66.52,94,37,2.3,mist,2022-11-17 00:17:24
434,Ukiah,US,39.1502,-123.2078,69.44,41,0,3.44,clear sky,2022-11-17 00:17:24
435,Shushenskoye,RU,53.325,91.9356,30.94,71,100,14.76,overcast clouds,2022-11-17 00:17:25
436,Praia,CV,14.9215,-23.5087,77.54,57,20,6.91,few clouds,2022-11-17 00:17:25
437,Tual,ID,-5.6667,132.75,83.43,74,100,8.66,overcast clouds,2022-11-17 00:17:26
438,Airai,TL,-8.9266,125.4092,69.22,68,93,1.54,overcast clouds,2022-11-17 00:17:26
439,Rincon,US,32.296,-81.2354,54.86,88,0,3.44,clear sky,2022-11-17 00:17:26
440,Olafsvik,IS,64.8945,-23.7142,44.33,74,77,22.97,broken clouds,2022-11-17 00:17:27
441,Were Ilu,ET,10.6,39.4333,43.72,51,29,4.94,scattered clouds,2022-11-17 00:17:27
442,Homer,US,59.6425,-151.5483,45.77,85,0,1.01,clear sky,2022-11-17 00:17:28
443,Xuchang,CN,34.0167,113.8167,49.24,49,2,2.93,clear sky,2022-11-17 00:17:28
444,Oktyabrskoye,RU,43.0645,44.7417,28.54,93,100,4.47,overcast clouds,2022-11-17 00:17:29
445,Levin,NZ,-40.6333,175.275,64.71,86,100,3.91,overcast clouds,2022-11-17 00:17:29
446,Tura,IN,25.5198,90.2201,61.21,88,0,3.94,clear sky,2022-11-17 00:17:30
447,Kuandian,CN,40.7286,124.7847,38.12,62,0,2.57,clear sky,2022-11-17 00:17:30
448,Storforshei,NO,66.4043,14.5233,34.02,31,45,5.75,scattered clouds,2022-11-17 00:17:30
449,Hornepayne,CA,49.2138,-84.7705,16.5,88,100,4.25,overcast clouds,2022-11-17 00:17:31
450,Necochea,AR,-38.5473,-58.7368,61.59,96,81,9.06,broken clouds,2022-11-17 00:17:31
451,Hobyo,SO,5.3505,48.5268,81.32,72,48,14.14,scattered clouds,2022-11-17 00:17:31
452,La Ligua,CL,-32.4524,-71.2311,62.87,74,0,3.13,clear sky,2022-11-17 00:17:32
453,Pacific Grove,US,36.6177,-121.9166,66.54,50,0,4.0,clear sky,2022-11-17 00:17:32
454,Buchanan,LR,5.8808,-10.0467,77.56,87,73,5.99,light rain,2022-11-17 00:17:32
455,Belaya Gora,RU,68.5333,146.4167,-20.65,98,100,2.68,overcast clouds,2022-11-17 00:17:33
456,Sovetskaya Gavan,RU,48.9723,140.2878,26.37,57,3,6.2,clear sky,2022-11-17 00:17:33
457,Teguldet,RU,57.3064,88.1667,24.48,93,100,7.25,overcast clouds,2022-11-17 00:17:33
458,Urengoy,RU,65.9667,78.3667,-4.86,89,88,4.54,overcast clouds,2022-11-17 00:17:34
459,Pingzhuang,CN,42.0372,119.2889,31.35,75,3,2.1,clear sky,2022-11-17 00:17:34
460,Minab,IR,27.1467,57.0801,76.3,66,0,0.56,clear sky,2022-11-17 00:17:34
461,Bayir,TR,37.2687,28.2167,46.92,91,8,3.8,clear sky,2022-11-17 00:17:34
462,Palmer,US,42.1584,-72.3287,42.17,74,40,12.66,scattered clouds,2022-11-17 00:17:35
463,Santa Rosa,PH,14.3122,121.1114,85.08,77,72,11.39,broken clouds,2022-11-17 00:17:35
464,Rawson,AR,-43.3002,-65.1023,61.39,53,0,16.28,clear sky,2022-11-17 00:17:35
465,Fairbanks,US,64.8378,-147.7164,13.98,80,40,0.0,scattered clouds,2022-11-17 00:13:20
466,Avesta,SE,60.1455,16.1679,35.13,86,33,3.4,scattered clouds,2022-11-17 00:17:36
467,Karia,NG,11.7306,11.1629,69.26,27,63,8.79,broken clouds,2022-11-17 00:17:36
468,Seydisehir,TR,37.4193,31.8453,39.22,79,30,3.65,scattered clouds,2022-11-17 00:17:37
469,Banda Aceh,ID,5.5577,95.3222,78.64,80,100,12.91,overcast clouds,2022-11-17 00:17:37
470,Taoudenni,ML,22.6783,-3.9836,74.17,16,0,9.28,clear sky,2022-11-17 00:17:37
471,Hofn,IS,64.2539,-15.2082,45.7,90,100,17.16,overcast clouds,2022-11-17 00:17:38
472,Dakar,SN,14.6937,-17.4441,77.88,74,65,8.16,broken clouds,2022-11-17 00:15:00
473,Komsomolskiy,UZ,40.4272,71.7189,38.12,81,11,2.3,few clouds,2022-11-17 00:14:39
474,Touros,BR,-5.1989,-35.4608,78.71,70,3,13.11,clear sky,2022-11-17 00:12:38
475,Kosonsoy,UZ,41.2561,71.5508,32.56,67,74,7.02,broken clouds,2022-11-17 00:17:38
476,Sovkhoznyy,RU,45.2946,38.1138,52.56,88,100,10.31,overcast clouds,2022-11-17 00:17:39
477,Clane,IE,53.2914,-6.6892,45.32,98,75,4.61,broken clouds,2022-11-17 00:17:39
478,Valparaiso,CL,-33.0393,-71.6273,65.48,100,0,9.22,clear sky,2022-11-17 00:17:39
479,Hoquiam,US,46.9809,-123.8893,53.92,61,0,9.22,clear sky,2022-11-17 00:17:40
480,Haverfordwest,GB,51.8017,-4.9691,47.79,95,100,8.12,overcast clouds,2022-11-17 00:17:40
481,Ketchikan,US,55.3422,-131.6461,45.61,86,56,5.75,broken clouds,2022-11-17 00:17:40
482,Mahibadhoo,MV,3.7833,72.9667,80.58,78,63,11.68,broken clouds,2022-11-17 00:17:41
483,Karasjok,NO,69.4719,25.5112,8.55,81,67,1.59,broken clouds,2022-11-17 00:17:41
484,Sola,VU,-13.8833,167.55,82.13,72,4,9.28,clear sky,2022-11-17 00:17:41
485,Manono,CD,-7.3,27.4167,65.84,94,97,2.53,overcast clouds,2022-11-17 00:17:42
486,Xuddur,SO,4.1213,43.8894,70.63,89,38,10.38,scattered clouds,2022-11-17 00:17:43
487,Naryan-Mar,RU,67.6713,53.087,7.23,96,62,8.99,broken clouds,2022-11-17 00:17:43
488,Nishihara,JP,26.1842,127.7558,76.66,78,75,12.66,broken clouds,2022-11-17 00:17:43
489,Rabo De Peixe,PT,37.8,-25.5833,63.28,98,75,3.44,light intensity shower rain,2022-11-17 00:17:44
490,Severnoye,RU,56.3491,78.3619,10.94,93,100,7.25,overcast clouds,2022-11-17 00:17:44
491,Rafaela,AR,-31.2503,-61.4867,81.99,24,11,1.99,few clouds,2022-11-17 00:17:44
492,Aitape,PG,-3.1374,142.3475,85.19,68,90,2.59,overcast clouds,2022-11-17 00:17:45
493,Wilmington,US,34.2257,-77.9447,53.91,83,0,4.61,clear sky,2022-11-17 00:14:30
494,Gold Coast,AU,-28.0,153.4333,76.15,42,82,9.22,broken clouds,2022-11-17 00:17:46
495,Tilichiki,RU,60.4667,166.1,11.44,93,51,3.18,broken clouds,2022-11-17 00:17:47
496,Sumbawanga,TZ,-7.9667,31.6167,59.29,84,55,4.21,broken clouds,2022-11-17 00:17:47
497,San Ramon,US,37.7799,-121.978,66.74,29,0,10.36,clear sky,2022-11-17 00:17:48
498,Knysna,ZA,-34.0363,23.0471,60.01,77,93,3.83,overcast clouds,2022-11-17 00:17:48
499,Japura,ID,-0.3167,102.35,75.27,85,100,3.36,overcast clouds,2022-11-17 00:17:49
500,Movileni,RO,44.3667,24.65,50.95,80,100,3.31,overcast clouds,2022-11-17 00:17:49
501,Berdigestyakh,RU,62.0989,126.6992,-16.49,90,80,9.22,broken clouds,2022-11-17 00:17:49
502,Eyl,SO,7.9803,49.8164,76.68,76,13,12.24,few clouds,2022-11-17 00:17:50
503,Honningsvag,NO,70.9821,25.9704,40.75,45,59,8.05,broken clouds,2022-11-17 00:17:50
504,Black River,JM,18.0264,-77.8487,79.47,82,85,2.51,overcast clouds,2022-11-17 00:17:50
505,Passy,FR,45.9203,6.6877,50.83,83,82,7.31,broken clouds,2022-11-17 00:17:51
506,Manthani,IN,18.65,79.6667,59.11,67,28,3.94,scattered clouds,2022-11-17 00:17:51
507,Vostok,RU,46.4856,135.8833,20.8,81,79,2.68,broken clouds,2022-11-17 00:17:51
508,Omsukchan,RU,62.5333,155.8,-25.46,97,60,3.87,broken clouds,2022-11-17 00:17:52
509,Mnogovershinnyy,RU,53.9353,139.9242,10.02,94,77,4.52,broken clouds,2022-11-17 00:17:52
510,Svetlogorsk,BY,52.6333,29.7333,28.44,77,99,10.89,overcast clouds,2022-11-17 00:17:52
511,Ambilobe,MG,-13.2,49.05,72.21,90,78,2.21,broken clouds,2022-11-17 00:17:53
512,Dongying,CN,37.4564,118.4856,50.41,47,0,3.8,clear sky,2022-11-17 00:17:53
513,Najran,SA,17.4924,44.1277,59.65,32,1,0.43,clear sky,2022-11-17 00:17:54
514,Hokitika,NZ,-42.7167,170.9667,62.29,70,100,1.25,overcast clouds,2022-11-17 00:17:54
515,Biga,TR,40.2281,27.2422,51.49,89,59,6.26,broken clouds,2022-11-17 00:17:54
516,Argelia,CO,2.2556,-77.2488,67.24,98,100,1.61,moderate rain,2022-11-17 00:17:55
517,Mabaruma,GY,8.2,-59.7833,74.61,94,89,2.68,overcast clouds,2022-11-17 00:17:55
518,Sri Aman,MY,1.2376,111.4621,80.65,89,20,2.3,few clouds,2022-11-17 00:17:56
519,Bonavista,CA,48.6499,-53.1147,33.87,65,94,5.32,overcast clouds,2022-11-17 00:17:56
520,Eslamshahr,IR,35.5605,51.2346,53.04,64,75,9.22,broken clouds,2022-11-17 00:17:57
521,Marsa Matruh,EG,31.3525,27.2453,64.74,71,1,9.15,light rain,2022-11-17 00:17:57
522,Marrakesh,MA,31.6315,-8.0083,62.67,34,0,11.5,clear sky,2022-11-17 00:13:40
523,Tateyama,JP,34.9833,139.8667,61.11,69,34,14.88,scattered clouds,2022-11-17 00:17:58
524,San Jose,US,37.3394,-121.895,67.78,30,20,9.22,few clouds,2022-11-17 00:17:41
525,Ormond Beach,US,29.2858,-81.0559,71.08,86,75,8.05,mist,2022-11-17 00:17:42
526,Christchurch,NZ,-43.5333,172.6333,71.42,68,20,3.44,few clouds,2022-11-17 00:15:05
527,Turayf,SA,31.6725,38.6637,50.25,93,0,4.61,clear sky,2022-11-17 00:17:58
528,Abu Dhabi,AE,24.4667,54.3667,78.96,80,0,3.44,clear sky,2022-11-17 00:17:59
529,Walvis Bay,NA,-22.9575,14.5053,60.1,94,0,11.5,clear sky,2022-11-17 00:17:59
530,Barretos,BR,-20.5572,-48.5678,75.51,32,0,7.18,clear sky,2022-11-17 00:17:59
531,Guaraniacu,BR,-25.1008,-52.8781,58.84,77,2,4.38,clear sky,2022-11-17 00:18:00
532,Peniche,PT,39.3558,-9.3811,65.28,93,100,18.61,overcast clouds,2022-11-17 00:18:00
533,Camacha,PT,33.0833,-16.3333,65.62,94,40,8.05,scattered clouds,2022-11-17 00:18:00
534,Sibolga,ID,1.7427,98.7792,74.61,90,100,3.06,overcast clouds,2022-11-17 00:18:00
535,Esmeraldas,BR,-19.7625,-44.3139,68.31,89,33,2.1,scattered clouds,2022-11-17 00:18:01
536,Santa Maria,BR,-29.6842,-53.8069,68.95,56,0,4.0,clear sky,2022-11-17 00:18:01
537,Kota Tinggi,MY,1.7381,103.8999,80.49,74,98,3.51,overcast clouds,2022-11-17 00:18:01
538,Estancia,BR,-11.2683,-37.4383,74.17,90,73,6.15,broken clouds,2022-11-17 00:18:02
539,Floro,NO,61.5996,5.0328,51.96,29,0,24.16,clear sky,2022-11-17 00:18:02
540,Strezhevoy,RU,60.7333,77.5889,-8.34,94,10,5.1,clear sky,2022-11-17 00:18:03
541,Mount Isa,AU,-20.7333,139.5,82.17,18,53,14.97,broken clouds,2022-11-17 00:18:03
542,Katobu,ID,-4.9408,122.5276,79.23,88,100,6.38,overcast clouds,2022-11-17 00:18:03
543,Rehoboth,NA,-23.3167,17.0833,72.28,15,0,3.0,clear sky,2022-11-17 00:18:04
544,Dicabisagan,PH,17.0818,122.4157,80.06,81,58,4.72,moderate rain,2022-11-17 00:18:04
545,Amapa,BR,1.0,-52.0,74.07,67,99,3.15,overcast clouds,2022-11-17 00:18:05
546,Bilibino,RU,68.0546,166.4372,-5.12,97,96,1.83,overcast clouds,2022-11-17 00:18:05
547,Boende,CD,-0.2167,20.8667,70.0,99,98,2.35,overcast clouds,2022-11-17 00:13:59
548,Maues,BR,-3.3836,-57.7186,82.92,60,99,2.24,overcast clouds,2022-11-17 00:18:06
549,Balabac,PH,7.9868,117.0645,82.42,80,100,10.58,overcast clouds,2022-11-17 00:18:06
550,Butembo,CD,0.15,29.2833,56.86,99,94,2.28,light rain,2022-11-17 00:18:07
551,Caloundra,AU,-26.8,153.1333,72.9,38,61,7.0,broken clouds,2022-11-17 00:18:07
552,Coruripe,BR,-10.1256,-36.1756,76.78,85,56,10.67,broken clouds,2022-11-17 00:13:56
553,Khetia,IN,21.6667,74.5833,69.12,44,16,5.84,few clouds,2022-11-17 00:18:08
554,Miramar,US,25.9873,-80.2323,81.0,81,100,5.75,overcast clouds,2022-11-17 00:18:08
555,Waipawa,NZ,-41.4122,175.5153,64.33,72,97,4.81,overcast clouds,2022-11-17 00:18:08
556,Eha Amufu,NG,6.6592,7.7596,74.14,67,91,4.16,overcast clouds,2022-11-17 00:18:09
557,Sawakin,SD,19.1059,37.3321,83.43,64,55,4.03,broken clouds,2022-11-17 00:18:09
558,Sikeston,US,36.8767,-89.5879,37.29,69,40,4.61,scattered clouds,2022-11-17 00:18:10
559,Ouesso,CG,1.6136,16.0517,68.99,99,100,2.1,moderate rain,2022-11-17 00:18:11
560,Verkhnyaya Inta,RU,65.9811,60.3094,-9.49,87,15,8.34,few clouds,2022-11-17 00:18:11
561,Lielvarde,LV,56.7207,24.8074,28.42,87,25,3.51,scattered clouds,2022-11-17 00:18:12
562,Honiara,SB,-9.4333,159.95,84.51,74,99,3.27,overcast clouds,2022-11-17 00:13:53
563,Maturin,VE,9.75,-63.1767,76.84,100,100,5.75,overcast clouds,2022-11-17 00:16:39
564,Kismayo,SO,-0.3582,42.5454,78.35,81,27,9.48,scattered clouds,2022-11-17 00:18:13
565,Dorchester,US,33.1002,-80.3831,52.07,97,100,0.0,overcast clouds,2022-11-17 00:18:13
566,Presidencia Roque Saenz Pena,AR,-26.7852,-60.4388,75.24,36,1,8.21,clear sky,2022-11-17 00:18:14
567,Phonhong,LA,18.5007,102.4166,72.3,91,6,1.7,clear sky,2022-11-17 00:18:14
568,Znamenskoye,RU,57.1281,73.8282,-2.42,95,97,5.66,overcast clouds,2022-11-17 00:18:15
569,Madison Heights,US,42.4859,-83.1052,37.36,82,100,6.91,haze,2022-11-17 00:14:20
570,Lincoln,US,40.8,-96.667,29.28,51,0,3.44,clear sky,2022-11-17 00:15:29
571,Port Moresby,PG,-9.4431,147.1797,87.22,74,40,11.5,scattered clouds,2022-11-17 00:15:56
572,Pestyaki,RU,56.7103,42.6717,23.18,88,71,3.58,broken clouds,2022-11-17 00:18:15
573,Pontes E Lacerda,BR,-15.2261,-59.3353,79.68,50,15,5.75,few clouds,2022-11-17 00:14:25
574,Buraydah,SA,26.326,43.975,68.45,44,97,7.29,overcast clouds,2022-11-17 00:18:17
575,Castelo Do Piaui,BR,-5.3222,-41.5525,81.95,42,33,5.64,scattered clouds,2022-11-17 00:18:18
576,Mata,PT,40.683,-7.4592,59.94,98,100,10.38,overcast clouds,2022-11-17 00:18:19
577,Karakol,KG,42.4907,78.3936,22.98,75,100,8.14,light snow,2022-11-17 00:18:19
578,Malakal,SS,9.5334,31.6605,75.65,36,18,5.28,few clouds,2022-11-17 00:18:20
579,Sao Pedro Da Cadeira,PT,39.0698,-9.3717,65.66,92,100,10.0,overcast clouds,2022-11-17 00:18:20
580,Sisimiut,GL,66.9395,-53.6735,22.24,90,100,21.18,light snow,2022-11-17 00:18:21
581,Birao,CF,10.2849,22.7882,69.55,34,100,5.53,overcast clouds,2022-11-17 00:18:21
582,Lerwick,GB,60.1545,-1.1494,50.0,89,100,42.28,moderate rain,2022-11-17 00:15:50
583,Murupara,NZ,-38.4667,176.7,63.66,97,100,4.9,overcast clouds,2022-11-17 00:18:22
584,Buxton,GB,53.2574,-1.9098,45.88,95,100,1.99,light rain,2022-11-17 00:18:22
585,Ola,RU,59.5833,151.2833,-1.86,89,100,9.33,overcast clouds,2022-11-17 00:18:23
586,Coromandel,BR,-18.4733,-47.2003,70.97,62,31,2.91,scattered clouds,2022-11-17 00:18:23
587,Kattivakkam,IN,13.2167,80.3167,73.49,75,34,9.73,scattered clouds,2022-11-17 00:18:24
588,Neiafu,TO,-18.65,-173.9833,81.28,83,40,2.3,scattered clouds,2022-11-17 00:18:24
589,Alvorada,BR,-12.48,-49.1247,75.25,80,95,3.49,overcast clouds,2022-11-17 00:18:25
590,Kango,GA,0.1943,10.0951,72.84,98,100,0.4,light rain,2022-11-17 00:18:25
591,Gamba,GA,-2.65,10.0,76.06,85,99,8.19,light rain,2022-11-17 00:18:25
592,Novikovo,RU,51.1537,37.8879,30.83,96,100,10.54,light snow,2022-11-17 00:18:26
593,Csaszartoltes,HU,46.4219,19.1836,48.43,89,100,7.9,overcast clouds,2022-11-17 00:18:26
594,Narva-Joesuu,EE,59.4589,28.0408,36.88,80,100,10.04,overcast clouds,2022-11-17 00:18:27
595,Dudinka,RU,69.4058,86.1778,-33.48,100,34,3.4,scattered clouds,2022-11-17 00:18:27
596,Kaoma,ZM,-14.7833,24.8,63.36,94,19,4.92,few clouds,2022-11-17 00:18:27
597,Mananjary,MG,-21.2167,48.3333,71.76,91,87,7.96,light rain,2022-11-17 00:18:28
598,Juneau,US,58.3019,-134.4197,43.21,94,40,0.0,fog,2022-11-17 00:16:30
599,Emba,KZ,48.8264,58.1442,23.47,85,93,7.14,overcast clouds,2022-11-17 00:18:29
600,San Quintin,MX,30.4833,-115.95,65.35,42,0,8.12,clear sky,2022-11-17 00:18:29
601,Chaohu,CN,31.6,117.8667,56.23,89,100,4.41,overcast clouds,2022-11-17 00:18:29
602,Arvika,SE,59.6553,12.5852,32.61,71,100,7.2,overcast clouds,2022-11-17 00:18:30
603,Kiunga,PG,-6.1219,141.2906,85.23,72,100,1.79,overcast clouds,2022-11-17 00:18:30
604,Fougamou,GA,-1.2154,10.5838,71.58,99,92,1.39,light rain,2022-11-17 00:18:30
605,Verkhoyansk,RU,67.5447,133.385,-41.31,100,75,1.21,broken clouds,2022-11-17 00:18:31
606,Fortuna,US,40.5982,-124.1573,58.91,70,0,9.22,clear sky,2022-11-17 00:18:31
607,Ergani,TR,38.2653,39.7621,46.24,87,100,2.89,light rain,2022-11-17 00:18:32
608,Chapais,CA,49.7834,-74.8492,19.18,95,100,5.48,light snow,2022-11-17 00:18:32
609,Alghero,IT,40.5589,8.3181,53.69,100,30,2.3,fog,2022-11-17 00:18:32
610,Asfi,MA,32.2994,-9.2372,64.47,82,41,1.68,scattered clouds,2022-11-17 00:18:33
611,Klooga,EE,59.3197,24.2114,34.9,100,75,1.14,broken clouds,2022-11-17 00:18:33
612,Dalbandin,PK,28.8947,64.4101,55.54,28,0,6.67,clear sky,2022-11-17 00:18:33
613,Cururupu,BR,-1.8283,-44.8683,75.79,82,67,4.65,broken clouds,2022-11-17 00:18:34
614,Coos Bay,US,43.3665,-124.2179,59.31,62,0,3.44,clear sky,2022-11-17 00:14:06
615,Sao Gabriel,BR,-30.3364,-54.32,69.91,58,0,6.55,clear sky,2022-11-17 00:18:34
616,Kenai,US,60.5544,-151.2583,33.15,71,0,12.66,clear sky,2022-11-17 00:15:01
617,Gao,ML,16.6362,1.637,70.0,15,87,11.1,overcast clouds,2022-11-17 00:18:34
618,Tarko-Sale,RU,64.9225,77.785,-5.04,79,70,7.92,broken clouds,2022-11-17 00:18:35
619,Kochi,IN,9.9399,76.2602,77.02,87,100,6.82,overcast clouds,2022-11-17 00:15:45
620,Inuvik,CA,68.3499,-133.7218,25.56,54,75,5.75,broken clouds,2022-11-17 00:18:36
621,Sibenik,HR,43.7272,15.9058,57.38,96,86,4.83,overcast clouds,2022-11-17 00:18:36
622,Sinjar,IQ,36.3209,41.8754,52.77,76,86,9.26,overcast clouds,2022-11-17 00:18:37
623,Ha Tinh,VN,18.3333,105.9,74.95,90,15,2.06,few clouds,2022-11-17 00:18:37
624,Pathein,MM,16.7833,94.7333,71.87,84,27,5.39,scattered clouds,2022-11-17 00:18:37
625,Kamenka,RU,51.3223,42.7678,31.1,99,100,4.79,light snow,2022-11-17 00:18:37
626,Havelock,US,34.8791,-76.9013,55.92,87,40,4.61,scattered clouds,2022-11-17 00:18:38
627,Povenets,RU,62.8487,34.8262,33.89,84,91,9.86,overcast clouds,2022-11-17 00:18:38
628,Salym,RU,60.0625,71.4789,-13.43,98,14,3.67,few clouds,2022-11-17 00:18:39
629,Great Yarmouth,GB,52.6083,1.7305,54.01,91,100,28.16,moderate rain,2022-11-17 00:18:39
630,Boshkengash,TJ,38.4661,68.8053,41.34,87,20,4.47,few clouds,2022-11-17 00:18:39
631,Ambagarh Chauki,IN,20.7833,80.7167,58.24,58,2,1.95,clear sky,2022-11-17 00:18:40
632,Manavadar,IN,21.5,70.1333,72.27,47,0,7.43,clear sky,2022-11-17 00:18:40
633,Yuzhno-Kurilsk,RU,44.0306,145.8556,41.61,58,67,17.58,broken clouds,2022-11-17 00:18:40
634,Kaeo,NZ,-35.1,173.7833,74.32,82,79,7.05,broken clouds,2022-11-17 00:18:41
635,Beloha,MG,-25.1667,45.05,66.56,88,0,4.5,clear sky,2022-11-17 00:14:24
636,Nampula,MZ,-15.1165,39.2666,71.55,83,0,6.91,clear sky,2022-11-17 00:18:42
637,Jinchang,CN,38.4953,102.1739,35.31,42,0,7.36,clear sky,2022-11-17 00:18:42
638,Salinas,US,36.6777,-121.6555,68.61,42,0,11.5,clear sky,2022-11-17 00:18:42
639,Half Moon Bay,US,37.4636,-122.4286,67.82,34,40,10.36,scattered clouds,2022-11-17 00:18:43
640,Isabela,PH,6.7085,121.9711,78.85,80,99,9.4,overcast clouds,2022-11-17 00:18:43
641,Exu,BR,-7.5119,-39.7242,80.87,47,73,2.98,broken clouds,2022-11-17 00:18:44
642,Sorland,NO,67.667,12.6934,44.46,53,71,11.5,broken clouds,2022-11-17 00:18:44
643,Balykshi,KZ,47.0667,51.8667,30.2,80,75,13.42,mist,2022-11-17 00:18:44
644,Karlskoga,SE,59.3267,14.5239,36.39,73,100,6.69,overcast clouds,2022-11-17 00:18:16
645,Husavik,IS,66.0449,-17.3389,43.32,80,98,15.3,overcast clouds,2022-11-17 00:18:45
646,Ware,GB,51.8126,-0.0283,52.11,97,75,9.22,broken clouds,2022-11-17 00:18:45
647,Lawrenceburg,US,38.0373,-84.8966,37.98,63,100,5.75,overcast clouds,2022-11-17 00:18:46
648,Matamoros,MX,25.5333,-103.25,62.71,48,75,8.05,broken clouds,2022-11-17 00:17:37
649,Wagar,SD,16.1525,36.2032,78.87,53,3,9.15,clear sky,2022-11-17 00:18:46
650,Sarangani,PH,5.4033,125.4636,79.75,80,100,13.94,overcast clouds,2022-11-17 00:18:47
651,Winnemucca,US,40.973,-117.7357,44.65,33,0,0.0,clear sky,2022-11-17 00:18:47
652,Tombouctou,ML,20.0,-3.0,70.88,15,97,11.21,overcast clouds,2022-11-17 00:18:47
653,Bulgan,MN,48.8125,103.5347,22.5,48,2,4.0,clear sky,2022-11-17 00:18:47
654,Umm Lajj,SA,25.0213,37.2685,75.02,57,70,9.44,broken clouds,2022-11-17 00:18:48
655,Saravan,AM,39.7196,45.6483,35.64,63,64,2.08,broken clouds,2022-11-17 00:18:48
656,Carutapera,BR,-1.195,-46.02,78.8,76,79,7.25,broken clouds,2022-11-17 00:18:49
657,Itacoatiara,BR,-3.1431,-58.4442,82.51,64,100,3.02,overcast clouds,2022-11-17 00:18:49
658,Port Hedland,AU,-20.3167,118.5667,77.05,65,100,11.5,overcast clouds,2022-11-17 00:18:49
659,Fallon,US,39.4735,-118.7774,47.91,35,0,6.91,clear sky,2022-11-17 00:18:50
660,Caconda,AO,-13.7333,15.0667,60.49,72,98,2.98,overcast clouds,2022-11-17 00:18:50
661,Shurugwi,ZW,-19.6702,30.0059,63.0,45,0,4.18,clear sky,2022-11-17 00:18:50
662,Caravelas,BR,-17.7125,-39.2481,73.54,94,100,0.38,overcast clouds,2022-11-17 00:18:50
663,Chenzhou,CN,25.8,113.0333,57.65,96,99,3.67,overcast clouds,2022-11-17 00:18:51
664,Mus,TR,39.0,41.75,35.22,100,100,3.47,snow,2022-11-17 00:18:51
665,Santa Fe,AR,-31.6333,-60.7,83.98,46,39,1.99,light rain,2022-11-17 00:18:51
666,Balkhash,KZ,46.844,74.9804,28.33,62,78,17.45,broken clouds,2022-11-17 00:18:52
667,Karasburg,NA,-28.0167,18.75,61.52,54,6,10.13,clear sky,2022-11-17 00:18:52
668,Las Vegas,US,36.175,-115.1372,60.58,20,0,10.36,clear sky,2022-11-17 00:16:30
669,Oranjestad,AW,12.524,-70.027,82.9,84,40,19.57,scattered clouds,2022-11-17 00:15:49
670,Bontang,ID,0.1333,117.5,78.89,84,100,6.33,overcast clouds,2022-11-17 00:18:52
671,Balikpapan,ID,-1.2675,116.8289,81.59,89,20,5.75,few clouds,2022-11-17 00:18:53
672,Kachug,RU,53.9606,105.8817,17.24,95,67,2.44,broken clouds,2022-11-17 00:18:53
673,Shelburne,CA,44.0787,-80.2041,27.75,88,93,5.55,overcast clouds,2022-11-17 00:15:08
674,Sao Miguel Do Araguaia,BR,-13.275,-50.1628,76.69,72,48,4.12,scattered clouds,2022-11-17 00:18:53
675,Nadym,RU,65.5333,72.5167,2.5,82,99,10.18,overcast clouds,2022-11-17 00:18:54
676,Wuxue,CN,29.8506,115.5525,56.3,80,100,3.27,overcast clouds,2022-11-17 00:18:54
677,Las Lomas,PA,8.4333,-82.4,76.69,90,90,2.82,overcast clouds,2022-11-17 00:18:54
678,Hovd,MN,48.0056,91.6419,27.7,45,75,11.7,broken clouds,2022-11-17 00:18:55
679,Qianan,CN,44.9932,124.0581,28.36,86,73,6.55,broken clouds,2022-11-17 00:18:55
680,Werda,BW,-25.2667,23.2833,77.43,26,29,7.58,scattered clouds,2022-11-17 00:18:55
